[{"lat": 22.822627, "lng": 113.025687, "name": "\u4f5b\u5c71\u70df\u706b\u6c34\u65cf\u7528\u54c1\u6709\u9650\u516c\u53f8"}, {"lat": 24.487688, "lng": 118.165572, "name": "\u53a6\u95e8\u6d77\u9975\u751f\u7269\u79d1\u6280\u6709\u9650\u516c\u53f8"}, {"lat": 36.656005, "lng": 119.117934, "name": "\u5c71\u4e1c\u6c34\u60a6\u73af\u4fdd\u79d1\u6280\u6709\u9650\u516c\u53f8"}, {"lat": 22.605138, "lng": 113.313478, "name": "\u4e2d\u5c71\u6c47\u53cc\u5b9d\u6c34\u65cf\u5668\u6750\u6709\u9650\u516c\u53f8"}, {"lat": 22.760353, "lng": 114.2476, "name": "\u6df1\u5733\u5e02\u51a0\u79d1\u6c34\u65cf\u7528\u54c1\u6709\u9650\u516c\u53f8"}, {"lat": 39.919541, "lng": 116.46709, "name": "\u5317\u4eac\u70df\u706b\u79d1\u6280\u6709\u9650\u516c\u53f8"}, {"lat": 22.526878, "lng": 113.907763, "name": "\u6df1\u5733\u5e02\u84dd\u9c7c\u4e9a\u65b0\u79d1\u6280\u6709\u9650\u516c\u53f8"}, {"lat": 22.987861, "lng": 113.984477, "name": "\u4e1c\u839e\u5e02\u6df1\u9e4f\u7535\u5b50\u6709\u9650\u516c\u53f8"}, {"lat": 36.320336, "lng": 120.629649, "name": "\u9752\u5c9b\u6d77\u79d1\u901a\u7528\u6d77\u6c34\u7d20\u6709\u9650\u516c\u53f8"}, {"lat": 31.249162, "lng": 121.487899, "name": "\u4e0a\u6d77\u4f20\u5cb3\u6c34\u65cf\u79d1\u6280\u6709\u9650\u516c\u53f8"}, {"lat": 22.682933, "lng": 114.030586, "name": "\u6df1\u5733\u539a\u5c79\u8282\u80fd\u6280\u672f\u6709\u9650\u516c\u53f8"}, {"lat": 22.704039, "lng": 113.972929, "name": "\u6df1\u5733\u5e02\u6d77\u6e05\u5149\u7535\u5b9e\u4e1a\u6709\u9650\u516c\u53f8"}, {"lat": 22.572844, "lng": 113.88583, "name": "\u6df1\u5733\u5e02\u4e2d\u79d1\u673a\u7535\u6709\u9650\u516c\u53f8"}, {"lat": 22.650307, "lng": 113.252136, "name": "\u4e2d\u5c71\u5e02\u6d77\u8fea\u7ef4\u5c14\u7535\u5668\u6709\u9650\u516c\u53f8"}, {"lat": 43.882819, "lng": 125.350654, "name": "\u6587\u9f99\u6c34\u65cf"}, {"lat": 22.650307, "lng": 113.252136, "name": "\u4e2d\u5c71\u5e02\u6d77\u8fea\u7ef4\u5c14\u7535\u5668\u6709\u9650\u516c\u53f8"}, {"lat": 22.699126, "lng": 113.948555, "name": "\u6df1\u5733\u5e0c\u5e1d\u83b1\u7279\u79d1\u6280\u6709\u9650\u516c\u53f8"}, {"lat": 22.679446, "lng": 113.843014, "name": "Keloray"}, {"lat": 22.679446, "lng": 113.843014, "name": "\u6df1\u5733\u5e02\u949c\u5f69\u7167\u660e\u79d1\u6280\u6709\u9650\u516c\u53f8"}, {"lat": 22.679446, "lng": 113.843014, "name": "\u949c\u5f69\u6c34\u65cf\u706f"}, {"lat": 22.679446, "lng": 113.843014, "name": "\u949c\u5f69\u7167\u660e\u6709\u9650\u516c\u53f8"}, {"lat": 23.331491, "lng": 113.395794, "name": "\u5e7f\u5dde\u65af\u854a\u7279\u6c34\u65cf\u8fc7\u6ee4\u5668\u6750\u6709\u9650\u516c\u53f8"}, {"lat": 23.125994, "lng": 113.409288, "name": "\u5e7f\u5dde\u4e54\u5ba3\u5316\u5de5\u6709\u9650\u516c\u53f8"}, {"lat": 36.332644, "lng": 120.333674, "name": "\u9752\u5c9b\u5965\u65af\u8fbe\u6c34\u65cf\u751f\u7269\u79d1\u6280\u6709\u9650\u516c\u53f8"}, {"lat": 22.743001, "lng": 113.99504, "name": "\u6df1\u5733DSunY\u6c34\u65cf\u706f"}, {"lat": 29.917405, "lng": 121.794856, "name": "\u5b81\u6ce2\u6c90\u6cfd\u6c34\u65cf\u7528\u54c1"}, {"lat": 22.546054, "lng": 114.025974, "name": "\u5c1a\u7231\u601dSanrise\u6c34\u65cf\u706f"}, {"lat": 36.294146, "lng": 120.408281, "name": "\u9752\u5c9b\u6d77\u8679\u6c34\u65cf\u79d1\u6280\u6709\u9650\u516c\u53f8"}, {"lat": 37.528787, "lng": 122.093958, "name": "\u6d77\u4e4b\u9b42\u6c34\u65cf\u7528\u54c1\u6709\u9650\u516c\u53f8"}, {"lat": 30.899057, "lng": 121.313615, "name": "\u5361\u9ed8\u5c14(kamoer)\u2015\u6ef4\u5b9a\u6cf5"}, {"lat": 22.769051, "lng": 113.260003, "name": "\u4f5b\u5c71\u987a\u5fb7\u677e\u8bfa\u7535\u5668\u6709\u9650\u516c\u53f8\uff0c\u6c34\u65cf\u90e8\uff0c\u9c7c\u7f38\u7535\u8111\u677f"}, {"lat": 39.127002, "lng": 117.13949, "name": "\u5929\u6d25\u4f17\u8bfa\u79d1\u6280\u6709\u9650\u516c\u53f8"}, {"lat": 23.020382, "lng": 113.329319, "name": "\u5e7f\u5dde\u5929\u5d4c\u8ba1\u7b97\u673a\u79d1\u6280\u6709\u9650\u516c\u53f8"}, {"lat": 29.275813, "lng": 120.206903, "name": "\u4e1c\u9633\u5e02\u68ee\u8bed\u6c34\u65cf\u6709\u9650\u516c\u53f8"}, {"lat": 22.846995, "lng": 114.436426, "name": "\u60e0\u5dde\u5e02\u5f6c\u6d77\u6c34\u65cf\u5b9e\u4e1a\u6709\u9650\u516c\u53f8"}, {"lat": 22.695956, "lng": 114.128672, "name": "\u6df1\u5733\u5e02\u559c\u6d6a\u7167\u660e\u79d1\u6280\u6709\u9650\u516c\u53f8"}, {"lat": 34.225611, "lng": 108.892778, "name": "\u897f\u5b89\u6d77\u6735\u667a\u80fd\u7f51\u7edc\u79d1\u6280\u6709\u9650\u516c\u53f8"}, {"lat": 22.633494, "lng": 113.293514, "name": "\u4e2d\u5c71\u5e02\u6c47\u53cc\u5b9d\u7535\u5668\u6709\u9650\u516c\u53f8"}, {"lat": 20.022071, "lng": 110.330802, "name": "\u6d77\u5357\u6c47\u76db\u6d77\u6d0b\u751f\u7269\u79d1\u6280\u6709\u9650\u516c\u53f8"}, {"lat": 22.998715, "lng": 113.373041, "name": "\u5e7f\u5dde\u79ef\u5149LED\u6c34\u65cf\u7167\u660e-ZETLIGHT"}, {"lat": 41.743855, "lng": 123.185778, "name": "\u6c88\u9633\u5e02\u90fd\u4e50\u6c34\u65cf\u7528\u54c1\u52a0\u5de5\u5382"}, {"lat": 23.078265, "lng": 113.041381, "name": "\u5317\u4eac\u70df\u706b\u6c34\u65cf\u79d1\u6280\u6709\u9650\u516c\u53f8"}, {"lat": 31.008602, "lng": 121.270403, "name": "\u5361\u5ddd\u5c14\uff08kamoer\uff09\u6ef4\u5b9a\u6cf5"}, {"lat": 23.120049, "lng": 113.30765, "name": "\u5e7f\u5dde\u5e02\u5927\u6210\u7ef4\u5eb7\u9972\u6599\u6709\u9650\u516c\u53f8"}, {"lat": 23.125952, "lng": 113.397753, "name": "\u5e7f\u5dde\u9177\u7855\u7535\u5b50\u79d1\u6280\u6709\u9650\u516c\u53f8"}, {"lat": 39.154273, "lng": 117.334704, "name": "\u5929\u6d25\u5e02\u6d77\u68ee\u6c34\u65cf\u6709\u9650\u516c\u53f8"}, {"lat": 31.680566, "lng": 119.945141, "name": "\u539f\u751f\u6001\u6c34\u65cf"}, {"lat": 23.740207, "lng": 117.492783, "name": "\u6f33\u5dde\u5e02\u4e1c\u5c71\u53bf\u5eb7\u7f8e\u517b\u6b96\u573a"}, {"lat": 31.006452, "lng": 121.266552, "name": "\u5361\u5ddd\u5c14\u6d41\u4f53\u79d1\u6280\uff08\u4e0a\u6d77\uff09\u6709\u9650\u516c\u53f8"}, {"lat": 23.120049, "lng": 113.30765, "name": "\u4e2d\u8d8a\u6d77\u6c34\u751f\u7269\uff08\u539f\u8d8a\u5357\u73ca\u745a\u76f4\u4f9b\u8fb9\u8d38\uff09"}, {"lat": 22.671854, "lng": 114.208441, "name": "\u5c1a\u7231\u601d\u6c34\u65cf\u706f"}, {"lat": 22.647944, "lng": 114.20511, "name": "\u9999\u6e2f\u6d77\u5927\u5b9e\u4e1a\u6709\u9650\u516c\u53f8"}, {"lat": 23.034699, "lng": 113.18269, "name": "\u4f5b\u5c71\u5e02\u78a7\u6c83\u4e30\u751f\u7269\u79d1\u6280\u80a1\u4efd\u6709\u9650\u516c\u53f8"}, {"lat": 31.234785, "lng": 121.062856, "name": "\u4e0a\u6d77\u7c73\u718a\u5b9e\u4e1a\u6709\u9650\u516c\u53f8"}, {"lat": 22.698839, "lng": 114.244381, "name": "\u6df1\u5733\u5e02\u4e1c\u5c3c\u7535\u5b50\u79d1\u6280\u6709\u9650\u516c\u53f8"}, {"lat": 22.737254, "lng": 114.324063, "name": "\u6df1\u5733\u5e02\u5170\u591a\u79d1\u6280\u6709\u9650\u516c\u53f8"}, {"lat": 22.715365, "lng": 113.838454, "name": "\u6df1\u5733\u5e02\u6c47\u666f\u7535\u673a\u6709\u9650\u516c\u53f8"}, {"lat": 37.972758, "lng": 112.48844, "name": "\u591a\u5f69\u9c7c\u5e97"}, {"lat": 22.668654, "lng": 113.2571, "name": "\u4e2d\u5c71\u5e02\u5e06\u9ca8\u6c34\u65cf\u6709\u9650\u516c\u53f8"}, {"lat": 22.668654, "lng": 113.2571, "name": "\u5e7f\u4e1c\u632f\u534e\u7535\u5668\u6709\u9650\u516c\u53f8"}, {"lat": 36.747147, "lng": 117.132733, "name": "\u6d4e\u5357\u6d77\u9f0e\u5de5\u8d38\u6709\u9650\u516c\u53f8"}, {"lat": 39.028611, "lng": 117.6552, "name": "\u4e2d\u76d0\u5de5\u7a0b\u6280\u672f\u7814\u7a76\u9662\u6709\u9650\u516c\u53f8"}, {"lat": 22.600337, "lng": 113.887432, "name": "\u6df1\u5733\u956d\u660e\u58eb\u79d1\u6280\u6709\u9650\u516c\u53f8"}, {"lat": 31.391231, "lng": 120.894832, "name": "\u82f1\u570b \u6a02\u6d77\u570b\u969b\u80a1\u4efd\u6709\u9650\u516c\u53f8"}, {"lat": 31.006452, "lng": 121.266552, "name": "\u5361\u5ddd\u5c14\u6d41\u4f53\u79d1\u6280\uff08\u4e0a\u6d77\uff09\u6709\u9650\u516c\u53f8"}, {"lat": 36.10874, "lng": 120.365828, "name": "\u9752\u5c9b\u6d77\u76ca\u751f\u73af\u5883\u79d1\u6280\u6709\u9650\u516c\u53f8"}, {"lat": 22.703408, "lng": 113.970318, "name": "\u5c3c\u83ab\u6c34\u65cf-\u767e\u60e0\u7965\u7535\u5b50\u6709\u9650\u516c\u53f8"}, {"lat": 36.718334, "lng": 117.078917, "name": "\u5c71\u4e1c\u590d\u9c7c\u6cf0\u5546\u8d38\u6709\u9650\u516c\u53f8"}, {"lat": 22.796578, "lng": 113.963883, "name": "\u6df1\u5733\u5e02\u5e0c\u5e1d\u83b1\u7167\u660e\u79d1\u6280\u6709\u9650\u516c\u53f8"}, {"lat": 22.652707, "lng": 114.212607, "name": "\u7d22\u8d5b\u79d1\u6280\u6709\u9650\u516c\u53f8"}, {"lat": 22.668654, "lng": 113.2571, "name": "\u4e2d\u5c71\u5e02\u96c5\u79d1\u601d\u7535\u5b50\u8bbe\u5907\u6709\u9650\u516c\u53f8"}, {"lat": 22.719399, "lng": 113.865287, "name": "NEMOLIGHT-\u6df1\u5733\u5c3c\u83ab\u6c34\u65cf\u6709\u9650\u516c\u53f8"}, {"lat": 39.987041, "lng": 116.612417, "name": "\u5317\u4eac\u4edf\u6e56\u6c34\u65cf\u89c2\u8d4f\u9c7c\u53ca\u5ba0\u7269\u6709\u9650\u516c\u53f8"}, {"lat": 23.080075, "lng": 113.200328, "name": "\u5e7f\u5dde\u5361\u58eb\u6c34\u65cf\u8bbe\u5907\u5382"}, {"lat": 22.67907, "lng": 113.935483, "name": "\u6df1\u5733\u5065\u68ee\u79d1\u6280\u6709\u9650\u516c\u53f8"}, {"lat": 23.101764, "lng": 113.39085, "name": "\u5e7f\u5dde\u5e02\u95fb\u4e9a\u5c55\u89c8\u670d\u52a1\u6709\u9650\u516c\u53f8"}, {"lat": 31.006452, "lng": 121.266552, "name": "\u4e0a\u6d77\u6c38\u521b\u533b\u7597\u5668\u68b0\u6709\u9650\u516c\u53f8"}, {"lat": 31.364364, "lng": 121.407785, "name": "\u4e0a\u6d77\u9f99\u57df\u6c34\u65cf\u7528\u54c1\u6709\u9650\u516c\u53f8"}, {"lat": 22.677443, "lng": 113.936488, "name": "\u6df1\u5733\u5e02\u5065\u68ee\u79d1\u6280\u6709\u9650\u516c\u53f8"}, {"lat": 30.543903, "lng": 114.29741, "name": "\u6b66\u6c49\u6d77\u7cbe\u7075\u6c34\u65cf\u9986"}, {"lat": 22.65315, "lng": 114.211638, "name": "\u9999\u6e2f\u6d77\u5927\u5b9e\u4e1a\u6709\u9650\u516c\u53f8"}, {"lat": 22.700193, "lng": 113.834003, "name": "\u6df1\u5733\u5e02\u4e2d\u79d1\u4e16\u7eaa\u79d1\u6280\u6709\u9650\u516c\u53f8"}, {"lat": 22.657462, "lng": 114.347696, "name": "\u9e3f\u6d77\u6c34\u65cf\u8bbe\u5907\u6709\u9650\u516c\u53f8-Red Starfish-\u7ea2\u6d77\u661f"}, {"lat": 22.927348, "lng": 112.838304, "name": "\u4f5b\u5c71\u5e02\u6c83\u7279\u65af\u6c34\u65cf\u7528\u54c1\u6709\u9650\u516c\u53f8"}, {"lat": 36.322568, "lng": 120.618749, "name": "\u9752\u5c9b\u6d77\u79d1\u901a\u7528\u6d77\u6c34\u7d20\u6709\u9650\u516c\u53f8"}, {"lat": 22.527515, "lng": 114.042577, "name": "\u6df1\u5733\u5e02\u65af\u739b\u83b1\u79d1\u6280\u6709\u9650\u516c\u53f8"}, {"lat": 22.721556, "lng": 114.138865, "name": "\u6df1\u5733\u5e02\u745e\u548c\u5bcc\u901a\u5851\u80f6\u5236\u54c1\u6709\u9650\u516c\u53f8"}, {"lat": 34.61994, "lng": 113.694239, "name": "\u90d1\u5dde\u79c0\u6c34\u574a\u6c34\u65cf\u8bbe\u5907\u6709\u9650\u516c\u53f8"}, {"lat": 22.895363, "lng": 113.305353, "name": "\u946b\u5723\u73bb\u7483\u5236\u54c1\u5382"}, {"lat": 36.065395, "lng": 120.376459, "name": "\u9752\u5c9b\u6d77\u4e4b\u76d0\u6c34\u65cf\u79d1\u6280\u6709\u9650\u516c\u53f8"}, {"lat": 19.947329, "lng": 110.478865, "name": "\u6d77\u53e3\u5609\u79b9\u6d77\u6d0b\u751f\u7269\u79d1\u6280\u6709\u9650\u516c\u53f8"}, {"lat": 22.709885, "lng": 114.237305, "name": "\u6df1\u5733\u5e02\u9e3f\u6d77\u6c34\u65cf\u8bbe\u5907\u5236\u9020\u6709\u9650\u516c\u53f8"}, {"lat": 22.932582, "lng": 113.226716, "name": "\u4f5b\u5c71\u5e02\u987a\u5fb7\u533a\u5317\u6ed8\u98de\u5f18\u8fc7\u6ee4\u5668\u6750\u5382"}, {"lat": 22.661499, "lng": 113.829515, "name": "\u6df1\u5733\u7eff\u9756\u9633\u5149\u7535\u6709\u9650\u516c\u53f8"}, {"lat": 19.993054, "lng": 110.358349, "name": "\u6d77\u53e3\u5e02\u84dd\u6d77\u6c34\u65cf\u6709\u9650\u516c\u53f8"}, {"lat": 23.664483, "lng": 117.00486, "name": "\u4e94\u6d32\u5b8f\u90a6\u6c34\u65cf\u5668\u6750\u5382"}, {"lat": 31.361315, "lng": 121.409169, "name": "\u4e0a\u6d77\u9f99\u57df\u6c34\u65cf\u7528\u54c1\u6709\u9650\u516c\u53f8"}, {"lat": 22.998864, "lng": 113.372911, "name": "ZETLIGHT--\u79ef\u5149\u6c34\u65cf\u7167\u660e"}, {"lat": 22.555651, "lng": 114.054678, "name": "\u6df1\u5733\u5e02\u81ea\u7136\u597d\u6c34\u65cf\u6709\u9650\u516c\u53f8"}, {"lat": 22.671854, "lng": 114.208441, "name": "\u6df1\u5733\u5e02\u7d22\u8d5b\u79d1\u6280\u6709\u9650\u516c\u53f8"}, {"lat": 22.998864, "lng": 113.372911, "name": "ZETLIGHT"}, {"lat": 36.104635, "lng": 120.380262, "name": "\u9752\u5c9b\u5965\u82ac\u5170\u751f\u7269\u6280\u672f\u6709\u9650\u516c\u53f8"}, {"lat": 23.150753, "lng": 113.03751, "name": "\u4f17\u5fd7\u5174\u4eae\u5149\u7535\u79d1\u6280\u6709\u9650\u516c\u53f8"}, {"lat": 22.62058, "lng": 114.230909, "name": "\u6df1\u5733\u5e02\u534e\u8363\u5a01\u7535\u5b50\u79d1\u6280\u6709\u9650\u516c\u53f8"}, {"lat": 22.931133, "lng": 114.115482, "name": "\u6781\u5149LED\u6c34\u65cf\u706f"}, {"lat": 23.040687, "lng": 113.150344, "name": "\u4f5b\u5c71\u5e02\u4f17\u5fd7\u5174\u4eae\u5149\u7535\u79d1\u6280\u6709\u9650\u516c\u53f8"}, {"lat": 22.998864, "lng": 113.372911, "name": "\u5e7f\u5dde\u5e02\u79ef\u5149\u7535\u5b50\u6709\u9650\u516c\u53f8"}, {"lat": 34.82597, "lng": 113.661013, "name": "\u90d1\u5dde\u9c7c\u7f38\u5b9a\u505a"}, {"lat": 22.812092, "lng": 113.412834, "name": "\u5e7f\u5dde\u76ca\u5c14\u751f\u7269\u5de5\u7a0b\u6709\u9650\u516c\u53f8"}, {"lat": 36.092742, "lng": 120.37331, "name": "\u9752\u5c9b\u901a\u8fea\u5546\u8d38\u6709\u9650\u516c\u53f8\uff08\u4e13\u4f5c\u6c34\u6bcd\uff09"}, {"lat": 23.096633, "lng": 113.22575, "name": "\u5e7f\u5dde\u5609\u79b9\u6d77\u6d0b\u751f\u7269\u79d1\u6280\u6709\u9650\u516c\u53f8"}, {"lat": 22.733544, "lng": 114.021409, "name": "\u6df1\u5733\u5e02\u51a0\u7533\u9e4f\u5b9e\u4e1a\u6709\u9650\u516c\u53f8"}, {"lat": 22.256915, "lng": 113.562447, "name": "\u73e0\u6d77\u5e02\u575a\u77f3\u5236\u54c1\u6709\u9650\u516c\u53f8"}, {"lat": 22.552453, "lng": 114.153948, "name": "\u6df1\u5733\u5e02\u767b\u51ef\u5b9e\u4e1a\u6709\u9650\u516c\u53f8"}, {"lat": 22.733544, "lng": 114.021409, "name": "\u6df1\u5733\u5e02\u51a0\u7533\u9e4f\u5b9e\u4e1a\u6709\u9650\u516c\u53f8"}, {"lat": 35.169241, "lng": 100.195125, "name": "golden coast fishing investment co.,ltd."}, {"lat": 23.136968, "lng": 113.4421, "name": "\u5e7f\u5dde\u84dd\u7075\u6c34\u65cf\u8bbe\u5907\u6709\u9650\u516c\u53f8"}, {"lat": 20.022071, "lng": 110.330802, "name": "\u6d77\u5357\u65b0\u5174\u6c34\u65cf"}, {"lat": 22.767444, "lng": 114.314164, "name": "\u6df1\u5733\u5e02\u65b0\u6d77\u6d0b\u6c34\u65cf"}, {"lat": 36.065395, "lng": 120.376459, "name": "\u9752\u5c9b\u6d77\u4e4b\u76d0\u6c34\u65cf\u79d1\u6280\u6709\u9650\u516c\u53f8"}, {"lat": 23.090939, "lng": 113.239568, "name": "\u5e7f\u5dde\u5e02\u8354\u6e7e\u533a\u6d77\u4e4b\u6e90\u6c34\u65cf\u574a"}, {"lat": 23.090939, "lng": 113.239568, "name": "\u5e7f\u5dde\u5e02\u8354\u6e7e\u533a\u6d77\u4e4b\u6e90\u6c34\u65cf\u574a"}, {"lat": 23.664483, "lng": 117.00486, "name": "\u9976\u5e73\u53bf\u4e94\u6d32\u5b8f\u90a6\u6c34\u65cf\u5668\u6750\u5382 "}, {"lat": 23.673481, "lng": 117.001101, "name": "\u5e7f\u4e1c\u6d77\u5229\u96c6\u56e2\u6709\u9650\u516c\u53f8"}, {"lat": 23.86503, "lng": 116.906123, "name": "\u5e7f\u4e1c\u6d77\u96c6\u56e2\u516c\u53f8"}, {"lat": 23.13949, "lng": 113.208281, "name": "\u4eab\u6d0b\u73bb\u7483\u5de5\u827a\u5382"}, {"lat": 39.888841, "lng": 116.547729, "name": "\u5317\u4eac\u5eb7\u666e\u6c47\u7ef4\u79d1\u6280\u6709\u9650\u516c\u53f8"}, {"lat": 39.968519, "lng": 116.339, "name": "\u5317\u4eac\u6c34\u6728\u9753\u7f57\u5546\u8d38\u6709\u9650\u516c\u53f8"}, {"lat": 34.825695, "lng": 113.661901, "name": "\u6cb3\u5357\u5929\u5de5\u79d1\u6280\u6c34\u65cf"}, {"lat": 31.32404, "lng": 121.433698, "name": "\u4e0a\u6d77\u67ef\u8bd1\u5b9e\u4e1a\u6709\u9650\u516c\u53f8"}, {"lat": 21.62717, "lng": 108.061081, "name": "\u4e2d\u8d8a\u6d77\u6c34\u89c2\u8d4f\u9c7c\u517b\u6b96\u516c\u53f8"}, {"lat": 23.120049, "lng": 113.30765, "name": "\u8d8a\u5357\u73ca\u745a\u76f4\u4f9b\u8fb9\u8d38"}, {"lat": 22.957569, "lng": 113.411754, "name": "\u5929\u8760\u6c34\u65cf"}, {"lat": 31.054611, "lng": 121.418879, "name": "\u4e0a\u6d77\u9f0e\u946b\u6c34\u65cf\u7528\u54c1\u6709\u9650\u516c\u53f8"}, {"lat": 22.619448, "lng": 114.067602, "name": "\u6df1\u5733\u5e02\u559c\u6d6a\u7167\u660e\u6709\u9650\u516c\u53f8"}, {"lat": 18.257776, "lng": 109.522771, "name": "\u60c5\u7f18\u6c34\u65cf"}, {"lat": 23.077409, "lng": 113.189262, "name": "\u5fa1\u9a6c\uff08\u5fb7\u56fd\uff09\u6c34\u65cf\u5668\u6750\u5382"}, {"lat": 22.586402, "lng": 113.926601, "name": "\u6df1\u5733\u5e02\u957f\u7530\u7167\u660e\u6709\u9650\u516c\u53f8"}, {"lat": 22.575432, "lng": 113.957732, "name": "\u6df1\u5733\u5a01\u5fb7\u68ee\u79d1\u6280\u6709\u9650\u516c\u53f8"}, {"lat": 27.518751, "lng": 108.891788, "name": "\u65b0\u5929\u6c60\u8d85\u767d\u6c34\u65cf\u7bb1\u6709\u9650\u516c\u53f8"}, {"lat": 20.022071, "lng": 110.330802, "name": "\u6d77\u5357\u6d77\u6c34\u89c2\u8d4f\u9c7c\u6279\u53d1\u4e2d\u5fc3"}, {"lat": 31.242855, "lng": 120.505303, "name": "\u82cf\u5dde\u897f\u9a6c\u514b\u7cbe\u5bc6\u9676\u74f7\u6709\u9650\u516c\u53f8"}, {"lat": 23.020955, "lng": 113.410778, "name": "\u7231\u8fbe\u7f8e\u5bb6\u5b9e\u6728\u9c7c\u7f38\u5e95\u67dc"}, {"lat": 23.091307, "lng": 113.238488, "name": "\u5e7f\u5dde\u5e02\u6d77\u9633\u6c34\u65cf\u7528\u54c1\u6709\u9650\u516c\u53f8"}, {"lat": 22.84851, "lng": 113.18703, "name": "\u4f5b\u5c71\u7231\u5ba0\u7269\u9972\u6599\u751f\u7269\u6280\u672f\u6709\u9650\u516c\u53f8"}, {"lat": 19.242408, "lng": 110.627757, "name": "\u6d77\u8fbe\u6e14\u4e1a"}, {"lat": 22.701606, "lng": 114.235905, "name": "\u6df1\u5733\u5e02\u9e3f\u6d77\u6c34\u65cf\u8bbe\u5907\u6709\u9650\u516c\u53f8"}, {"lat": 39.822829, "lng": 116.455473, "name": "\u5317\u4eac\u79d1\u827a\u901a\u4eea\u5668\u5382"}, {"lat": 19.993909, "lng": 110.364325, "name": "\u6d77\u5357\u8054\u65b0\u89c2\u8d4f\u9c7c\u6279\u53d1\u4e2d\u5fc3"}, {"lat": 22.767444, "lng": 114.314164, "name": "\u6df1\u5733\u5e7f\u6da6\u53d1\u6c34\u65cf\u6709\u9650\u516c\u53f8"}, {"lat": 19.96492, "lng": 110.542064, "name": "\u6d77\u53e3\u5609\u79b9\u6d77\u6d0b\u751f\u7269\u79d1\u6280\u6709\u9650\u516c\u53f8"}, {"lat": 23.086658, "lng": 113.232083, "name": "\u4eba\u5de5\u6d77\u6c34\u76d0\u3001\u5668\u6750\u3001\u6d77\u6c34\u9c7c\u3001\u751f\u7269\u6279\u53d1\u5236\u9020"}, {"lat": 22.465115, "lng": 113.311394, "name": "\u4e2d\u5c71\u6e14\u5320\u6c34\u65cf\u9986"}, {"lat": 22.767444, "lng": 114.314164, "name": "\u6df1\u5733\u5e7f\u6da6\u53d1\u6c34\u65cf\u6709\u9650\u516c\u53f8"}, {"lat": 32.014665, "lng": 120.873801, "name": "\u5357\u901a\u91d1\u5927\u6d0b\u6d77\u6c34\u6676\u6709\u9650\u516c\u53f8"}, {"lat": 23.089981, "lng": 113.234766, "name": "SICCE\u5e7f\u5dde\u529e\u4e8b\u5904"}, {"lat": 36.778078, "lng": 116.983157, "name": "\u6d4e\u5357\u91d1\u592a\u9633\u6c34\u65cf\u88c5\u9970"}, {"lat": 31.259067, "lng": 121.498862, "name": "\u53ef\u4e3d\u7231 \u70ed\u5e26\u96e8\u6797\u6d77\u6d0b\u6c34\u65cf"}, {"lat": 22.722266, "lng": 114.302341, "name": "\u6df1\u5733\u5e02\u96ea\u574a\u51c0\u6c34\u79d1\u6280\u6709\u9650\u516c\u53f8"}, {"lat": 31.024086, "lng": 121.274124, "name": "\u4e0a\u6d77\u6c38\u521b\u533b\u7597\u5668\u68b0\u6709\u9650\u516c\u53f8"}, {"lat": 31.006452, "lng": 121.266552, "name": "\u5361\u5ddd\u5c14\u6d41\u4f53\u79d1\u6280\uff08\u4e0a\u6d77\uff09\u6709\u9650\u516c\u53f8"}, {"lat": 24.475441, "lng": 118.110848, "name": "\u53a6\u95e8\u60a0\u6d3b\u6c34\u65cf\u9986"}, {"lat": 22.633361, "lng": 113.267359, "name": "\u4e2d\u5c71\u5e02\u5c0f\u6984\u9547\u7cbe\u90a6\u7535\u5668\u5382"}, {"lat": 23.089685, "lng": 113.234947, "name": "Dalch\u5fb7\u4e50\u58eb"}, {"lat": 23.089981, "lng": 113.234766, "name": "Tetra\u5e7f\u5dde\u529e\u4e8b\u5904"}, {"lat": 22.956407, "lng": 113.415424, "name": "\u5929\u8760\u6c34\u65cf"}, {"lat": 39.968519, "lng": 116.339, "name": "\u5317\u4eac\u5343\u59ff\u6c34\u65cf"}, {"lat": 20.022071, "lng": 110.330802, "name": "\u6d77\u53e3\u84dd\u6d77\u6c34\u65cf\u6709\u9650\u516c\u53f8"}, {"lat": 20.022071, "lng": 110.330802, "name": "\u6d77\u5357\u65fa\u52a0\u65fa\u6c34\u65cf"}, {"lat": 31.238324, "lng": 121.434729, "name": "\u4e0a\u6d77\u6d77\u5de5\u574a SHKERRY AQUA"}, {"lat": 23.126726, "lng": 113.319313, "name": "\u5e7f\u5dde\u5a01\u540d\u6c34\u65cf\u5c55\u89c8\u5de5\u7a0b\u6709\u9650\u516c\u53f8"}, {"lat": 26.446506, "lng": 117.818846, "name": "\u798f\u5efa\u4eb2\u4eb2\u9c7c\u7597\u8bbe\u5907\u5546\u884c"}, {"lat": 30.315832, "lng": 120.303823, "name": "\u676d\u5dde\u739b\u8c46\u73af\u4fdd\u79d1\u6280\u6709\u9650\u516c\u53f8"}, {"lat": 23.089509, "lng": 113.236635, "name": "\u5e7f\u5dde\u6d77\u9cb8\u6c34\u65cf\u8d38\u6613\u5546\u884c"}, {"lat": 23.089656, "lng": 113.248389, "name": "\u5e7f\u5dde\u57ce\u5e02\u6d77\u6d0b"}, {"lat": 39.199161, "lng": 117.20599, "name": "\u53f0\u6e7e\u739b\u79d1\u6c34\u65cf"}, {"lat": 22.597955, "lng": 113.313465, "name": "\u4e2d\u5c71\u5e02\u6377\u5b9d\u7535\u5b50\u7535\u5668\u6709\u9650\u516c\u53f8"}, {"lat": 23.079684, "lng": 113.205474, "name": "\u6d9b\u6d9b\u8d85\u767d\u7f38\u6c34\u65cf\u7528\u54c1\u5382"}, {"lat": 30.833297, "lng": 104.026257, "name": "\u6e1d\u6d2a\u6c34\u65cf\u9c7c\u7f38LED\u706f"}, {"lat": 39.116987, "lng": 117.162728, "name": "KK POWER LIGHT LED "}, {"lat": 22.575117, "lng": 113.078125, "name": "\u6fc0\u626c\u6c34\u65cf\u5668\u6750\u6709\u9650\u516c\u53f8BUBBLE MAGUS"}, {"lat": 30.175857, "lng": 121.248416, "name": "\u7231\u81ea\u7136\u6c34\u65cf"}, {"lat": 22.546054, "lng": 114.025974, "name": "\u6df1\u5733\u6d77\u5de5\u5320\u6c34\u65cf\u6709\u9650\u516c\u53f8"}, {"lat": 36.085484, "lng": 120.363341, "name": "\u9752\u5c9b\u5e7b\u6d77\u6d77\u6d0b\u751f\u7269\u79d1\u6280\u6709\u9650\u516c\u53f8"}, {"lat": 31.223507, "lng": 121.458953, "name": "\u7f8e\u7279\u65af\u56fd\u9645\u4f01\u4e1a\u6709\u9650\u516c\u53f8"}, {"lat": 31.26165, "lng": 121.395994, "name": "\u4e0a\u6d77\u667a\u6d0b\u5ba0\u7269\u7528\u54c1\u6709\u9650\u516c\u53f8"}, {"lat": 26.019664, "lng": 119.334936, "name": "\u5927\u5821\u7901\u6c34\u65cf"}, {"lat": 23.077193, "lng": 113.217471, "name": "\u84dd\u9cb8\u9ca8\u6c34\u65cf"}, {"lat": 39.703698, "lng": 118.154302, "name": "\u5510\u5c71\u94ed\u5fc3\u5546\u8d38\u6709\u9650\u516c\u53f8"}, {"lat": 22.827313, "lng": 108.343035, "name": "\u5e7f\u897f\u5357\u5b81\u5609\u4e4b\u94ed\u8d38\u6613\u6709\u9650\u8d23\u4efb\u516c\u53f8"}, {"lat": 39.215454, "lng": 117.141837, "name": "\u5929\u6d25\u5e02\u6c5f\u5cf0\u6d77\u6d0b\u751f\u6001\u6709\u9650\u516c\u53f8"}, {"lat": 23.107309, "lng": 113.242176, "name": "\u5e7f\u5dde\u9c7c\u4f6c\u6c34\u65cf\u8d38\u6613\u6709\u9650\u516c\u53f8"}, {"lat": 39.929986, "lng": 116.395645, "name": "\u6d77\u5357\u4e39\u9752\u73af\u827a\u8bbe\u8ba1\u5de5\u7a0b\u6709\u9650\u516c\u53f8"}, {"lat": 22.653862, "lng": 114.009038, "name": "\u6df1\u5733\u534e\u6e90\u79d1\u6280\u6709\u9650\u516c\u53f8"}, {"lat": 25.72442, "lng": 119.401566, "name": "\u798f\u6e05\u5e02\u5eb7\u56ed\u8d38\u6613\u6709\u9650\u516c\u53f8"}, {"lat": 22.551731, "lng": 114.055593, "name": "\u6df1\u5733\u6d77\u8d3c\u6c34\u65cf\u6709\u9650\u516c\u53f8"}, {"lat": 23.161879, "lng": 113.212448, "name": "\u8d8a\u5357\u73af\u7403\u6c34\u65cf"}, {"lat": 29.114929, "lng": 119.696118, "name": "\u751f\u6771\u8cbf\u6613\u6709\u9650\u516c\u53f8"}, {"lat": 18.257776, "lng": 109.522771, "name": "\u4e09\u4e9a\u946b\u6d77\u9f99\u5de5\u8d38\u6709\u9650\u516c\u53f8"}, {"lat": 22.318547, "lng": 114.233106, "name": "angel_island \u5929\u4f7f\u5cf6"}, {"lat": 20.022071, "lng": 110.330802, "name": "\u6d77\u5357\u65fa\u52a0\u65fa\u6c34\u65cf"}, {"lat": 23.086658, "lng": 113.232083, "name": "\u5e7f\u5dde\u5e02\u76d0\u5ea6\u6c34\u65cf"}, {"lat": 22.25087, "lng": 114.176151, "name": "\u6c34\u65cf\u6587\u5316"}, {"lat": 22.555116, "lng": 114.082276, "name": "\u84dd\u6d77\u6c34\u65cf\u6709\u9650\u516c\u53f8\u6df1\u5733\u5206\u573a"}, {"lat": 23.093666, "lng": 113.234423, "name": "\u5927\u81ea\u7136\u6c34\u65cf"}, {"lat": 23.091307, "lng": 113.238488, "name": "\u5e7f\u5dde\u9526\u7ee3\u6e14\u573a"}, {"lat": 22.546054, "lng": 114.025974, "name": "\u6d77\u7cbe\u6c34\u65cf"}, {"lat": 39.10414, "lng": 117.236454, "name": "\u5929\u6d25\u9f99\u9b42\u56fd\u8d38\u6709\u9650\u516c\u53f8"}, {"lat": 19.942909, "lng": 110.507269, "name": "\u5e74\u5e74\u6709\u9c7c\u6c34\u65cf"}, {"lat": 29.893607, "lng": 121.811178, "name": "\u5b81\u6ce2\u5143\u68ee\u6c34\u65cf\u7528\u54c1\u6709\u9650\u516c\u53f8"}, {"lat": 22.767444, "lng": 114.314164, "name": "\u6df1\u5733\u5e02\u5e7f\u6da6\u53d1\u6c34\u65cf\u6709\u9650\u516c\u53f8"}, {"lat": 39.066534, "lng": 117.238662, "name": "\u5929\u6d25\u9f99\u9b42\u56fd\u9645\u8d38\u6613\u6709\u9650\u516c\u53f8"}, {"lat": 36.065395, "lng": 120.376459, "name": "\u9752\u5c9b\u6d77\u4e4b\u76d0\u6c34\u65cf\u79d1\u6280\u6709\u9650\u516c\u53f8 "}, {"lat": 23.121207, "lng": 113.406497, "name": "\u5e7f\u5dde\u5e02\u5929\u7136\u84dd\u6c34\u6676\u6c34\u65cf\u9986"}, {"lat": 23.135987, "lng": 113.323957, "name": "\u5e7f\u5dde\u5e02\u6d77\u84dd\u4e4b\u8c1c\u6c34\u65cf"}, {"lat": 22.56477, "lng": 114.126637, "name": "\u9f99\u6d9b\u6c34\u65cf"}, {"lat": 31.171166, "lng": 121.444478, "name": "\u4e0a\u6d77\u5f3a\u5b9e\u81ea\u52a8\u5316\u63a7\u5236\u6709\u9650\u516c\u53f8"}, {"lat": 30.716358, "lng": 120.844535, "name": "\u5609\u5174\u5e02\u767e\u6cfd\u8fdb\u51fa\u53e3\u6709\u9650\u516c\u53f8"}, {"lat": 31.277693, "lng": 120.583313, "name": "\u82cf\u5dde\u701a\u817e\u6c34\u65cf\u8cbf\u6613\u6709\u9650\u516c\u53f8"}, {"lat": 36.220746, "lng": 113.134374, "name": "\u6211\u7684\u6d77\u6d0b\u9986"}, {"lat": 23.120049, "lng": 113.30765, "name": "\u5e7f\u5dde\u9633\u5149"}, {"lat": 23.120049, "lng": 113.30765, "name": "\u6cd5\u7ea2\u4e2d\u56fd\u8d38\u6613\u6709\u9650\u516c\u53f8"}, {"lat": 37.821607, "lng": 112.558938, "name": "\u73cd\u5b9d\u6c34\u65cf"}, {"lat": 21.476591, "lng": 109.092059, "name": "\u5317\u6d77\u91d1\u8235\u6d77\u4ea7\u6709\u9650\u516c\u53f8"}, {"lat": 34.75661, "lng": 113.649644, "name": "\u3010\u90d1\u5dde\u6d77\u98ce\u5de5\u4f5c\u5ba4\u3011"}, {"lat": 34.87533, "lng": 117.564571, "name": "\u5c71\u4e1c\u6ea2\u5f69\u5546\u8d38\u6709\u9650\u516c\u53f8"}, {"lat": 23.111326, "lng": 113.456447, "name": "SHG\u610f\u5927\u5229\u8fdb\u53e3\u73ca\u745a\u7cae-\u603b\u4ee3\u7406"}, {"lat": 22.2656, "lng": 113.533731, "name": "\u5947\u4e50\u6d77\u6d0b\u8fdb\u53e3\u6d77\u6d0b\u751f\u7269\u6279\u53d1"}, {"lat": 36.16696, "lng": 120.433599, "name": "\u51b0\u5ddd\u6c34\u65cf"}, {"lat": 45.594331, "lng": 84.88118, "name": "\u68ee\u68ee\u6c34\u65cf"}, {"lat": 23.111326, "lng": 113.456447, "name": "omega one \u7f8e\u56fd\u539f\u88c5\u8fdb\u53e3\u6d77\u6c34\u9c7c\u7cae\u603b\u4ee3\u7406"}, {"lat": 28.917804, "lng": 101.63508, "name": "\u5bcc\u5409\u56fd\u9645-\u7f8e\u56fdOMEGA ONE\u9c7c\u7cae\u603b\u4ee3\u7406"}, {"lat": 22.256915, "lng": 113.562447, "name": "\u6da6\u90ce\u8d38\u6613\u6709\u9650\u516c\u53f8"}, {"lat": 40.109515, "lng": 113.306568, "name": "\u82f9\u679c\u6d77\u6d0b\u6d3b\u4f53\u6c34\u65cf"}, {"lat": 31.174688, "lng": 121.526746, "name": "\u7cbe\u6e90\u6c34\u65cf\u7528\u54c1\uff08\u4e0a\u6d77\uff09\u6709\u9650\u516c\u53f8"}, {"lat": 22.676331, "lng": 113.892269, "name": "\u6df1\u5733\u5e02\u84dd\u9c7c\u4e9a\u65b0\u79d1\u6280\u6709\u9650\u516c\u53f8"}, {"lat": 30.179549, "lng": 121.248452, "name": "\u6148\u6eaa\u7231\u81ea\u7136\u6c34\u65cf"}, {"lat": 45.758923, "lng": 126.683386, "name": "\u9ed1\u9f99\u6c5f\u6d77\u6c34\u7ecf\u9500\u90e8"}, {"lat": 40.886707, "lng": 122.705696, "name": "\u5929\u6d25\u6d77\u6c34\u84dd"}, {"lat": 47.743403, "lng": 121.929202, "name": "\u68a6\u5e7b\u6d77\u5e95\u4e16\u754c"}, {"lat": 41.6216, "lng": 122.753592, "name": "\u60a6\u4e3d\u6d77\u6d0b\u751f\u7269\u6709\u9650\u516c\u53f8"}, {"lat": 39.928222, "lng": 116.439381, "name": "amf\u6d77\u6d0b\u68a6\u60f3"}, {"lat": 38.928489, "lng": 121.652336, "name": "\u5927\u8fde\u5929\u5e2e\u6c34\u65cf\u5668\u6750\u6709\u9650\u516c\u53f8"}, {"lat": 23.10393, "lng": 113.242935, "name": "\u746a\u79d1\u6c34\u65cf\u574a"}, {"lat": 30.290878, "lng": 120.123867, "name": "\u676d\u5dde\u6e05\u6c34\u574a\u751f\u6001\u6c34\u65cf"}, {"lat": 43.858361, "lng": 125.396593, "name": "\u6d77\u822a\u6c34\u65cf"}, {"lat": 23.072399, "lng": 113.209219, "name": "\u5e7f\u5dde\u56fd\u6d77\u6c34\u65cf\u7528\u54c1\u6709\u9650\u516c\u53f8"}, {"lat": 23.089166, "lng": 113.240137, "name": "\u5e7f\u5dde\u5a01\u683c\u6c34\u65cf"}, {"lat": 23.091307, "lng": 113.238488, "name": "\u5e7f\u5dde\u5e02\u6d77\u9633\u6c34\u65cf\u7528\u54c1\u6709\u9650\u516c\u53f8"}, {"lat": 22.694096, "lng": 113.960664, "name": "\u8054\u90a6\u91cd\u79d1\u7167\u660e\u8bbe\u5907\u6709\u9650\u516c\u53f8"}, {"lat": 39.861857, "lng": 116.318921, "name": "\u5317\u4eac\u6d77\u97f5\u6c34\u666f\u6c34\u65cf"}, {"lat": 23.107309, "lng": 113.242176, "name": "\u5e7f\u5dde\u91d1\u76db\u6c34\u65cf"}, {"lat": 30.543903, "lng": 114.29741, "name": "\u6b66\u6c49\u6d77\u5e73\u9762\u6c34\u65cf\u6709\u9650\u516c\u53f8"}, {"lat": 22.623211, "lng": 114.153463, "name": "\u6df1\u5733\u5e02\u8d85\u661f\u5149\u79d1\u6280\u6709\u9650\u516c\u53f8"}, {"lat": 23.10016, "lng": 113.242925, "name": "\u5e7f\u5dde\u56fd\u5fd7\u6c34\u65cf\u7528\u54c1\u4f9b\u5e94\u6709\u9650\u516c\u53f8"}, {"lat": 32.093344, "lng": 118.761355, "name": "\u5357\u4eac\u5e73\u60e0\u6c34\u65cf"}, {"lat": 23.089323, "lng": 113.240139, "name": "\u84dd\u6d77\u6811\u6c34\u65cf\u574a"}, {"lat": 31.326232, "lng": 121.46684, "name": "\u4e0a\u6d77\u5e02\u5e7d\u84dd\u6c34\u65cf\u5668\u6750\u6709\u9650\u516c\u53f8"}, {"lat": 31.249645, "lng": 121.344996, "name": "\u4e0a\u6d77\u5b87\u6770\u6c34\u65cf\u7528\u54c1\u6709\u9650\u516c\u53f8"}, {"lat": 45.766227, "lng": 126.716236, "name": "\u54c8\u5c14\u6ee8\u5fb7\u4fe1\u6052\u8fdc\u53e4\u73a9\u57ce\u6d77\u9646\u82b1\u56ed\u6c34\u65cf\u9986"}, {"lat": 22.609761, "lng": 114.150975, "name": "\u6df1\u5733\u5e02\u6d77\u4e4b\u827a\u6c34\u65cf"}, {"lat": 30.69504, "lng": 104.150032, "name": "\u6210\u90fd\u718a\u732b\u4e0e\u6d77\u6c34\u65cf"}, {"lat": 25.994601, "lng": 119.465159, "name": "\u798f\u5dde\u82b1\u82b1\u9c7c\u6c34\u65cf"}, {"lat": 30.655571, "lng": 104.076028, "name": "\u96ea\u98ce\u6c34\u65cf"}, {"lat": 37.528468, "lng": 111.147294, "name": "\u6d77\u4e16\u754c\u4f53\u9a8c\u9986"}, {"lat": 31.295727, "lng": 120.616793, "name": "SEA\u4e0b\u6d77\u5427\u6c34\u65cf\u9986"}, {"lat": 30.328048, "lng": 120.138956, "name": "\u676d\u5dde\u5c1a\u6021\u8d38\u6613\u6709\u9650\u516c\u53f8"}, {"lat": 31.590804, "lng": 120.302231, "name": "\u4f73\u4e1a\u6c34\u65cf"}, {"lat": 24.697452, "lng": 118.146635, "name": "\u53a6\u95e8\u963f\u4e2d\u6c34\u65cf"}, {"lat": 31.466579, "lng": 120.248502, "name": "\u65e0\u9521\u6d77\u5929\u76db\u5927\u65c5\u6e38\u7ba1\u7406\u6709\u9650\u516c\u53f8"}, {"lat": 28.198608, "lng": 112.992913, "name": "\u5c14\u6d77\u6c34\u65cf"}, {"lat": 40.380364, "lng": 116.852106, "name": "\u770b\u6d77\u9a7f\u7ad9"}, {"lat": 34.205267, "lng": 108.98791, "name": "\u897f\u5b89\u6d77\u671b\u89d2\u5bb6\u5ead\u6d77\u6d0b\u666f\u89c2"}, {"lat": 34.26806, "lng": 117.195181, "name": "\u6d77\u6d0b\u4e4b\u5fc3\u6d77\u6c34\u666f\u89c2\u5de5\u4f5c\u5ba4"}, {"lat": 40.251549, "lng": 116.781921, "name": "\u8001\u6e14\u592b\u73ca\u745a\u4e4b\u5bb6"}, {"lat": 30.656091, "lng": 114.332868, "name": "027\u6d77\u57df"}, {"lat": 43.80605, "lng": 125.406005, "name": "\u7384\u9e1f\u6d77\u6c34\u5de5\u4f5c\u5ba4"}, {"lat": 23.096804, "lng": 113.243611, "name": "\u73cd\u53cb\u7f18\u6c34\u65cf"}, {"lat": 22.605138, "lng": 113.313478, "name": "\u84dd\u8272\u5929\u7a7a\u6c34\u65cf\u9986"}, {"lat": 22.530571, "lng": 113.955853, "name": "\u6df1\u5733\u5e02\u9f99\u5a01\u6c34\u65cf"}, {"lat": 39.929986, "lng": 116.395645, "name": "\u6d77\u6d0b"}, {"lat": 23.089509, "lng": 113.236635, "name": "\u6021\u4e50\u6d77\u6c34\u4e13\u95e8\u5e97"}, {"lat": 36.197841, "lng": 113.130503, "name": "\u5c71\u897f\u7701\u957f\u6cbb\u5e02\u6d77\u9b54\u65b9\u6d77\u6c34\u6c34\u65cf\u5e97"}, {"lat": 39.871074, "lng": 116.463284, "name": "\u535a\u96c5\u6d77\u5de5\u574a"}, {"lat": 41.810315, "lng": 123.428328, "name": "\u80e1\u6d77\u6cc9\u6c34\u65cf"}, {"lat": 37.785601, "lng": 112.575944, "name": "\u5c71\u897f\u6d77\u4e4b\u97f5"}, {"lat": 39.069013, "lng": 117.272986, "name": "\u5929\u6d25\u9b54\u6cd5\u6d77\u6d0b\u68c0\u75ab\u5de5\u4f5c\u5ba4"}, {"lat": 38.904086, "lng": 115.512666, "name": "\u6e5b\u84dd\u6d77\u6c34--\u4fdd\u5b9a"}, {"lat": 22.707433, "lng": 113.930013, "name": "\u6df1\u5733\u5e02\u6e14\u592b\u6e2f\u53e3\u6c34\u65cf\u9986"}, {"lat": 40.154951, "lng": 116.728229, "name": "\u5317\u4eacShark\u6c34\u65cf"}, {"lat": 22.970487, "lng": 113.736724, "name": "\u9999\u6e2f\u80d6\u80d6\u9c7c\u56fd\u9645\u8d38\u6613\u6709\u9650\u516c\u53f8\u4e1c\u839e\u5206\u516c\u53f8"}, {"lat": 39.867758, "lng": 116.46636, "name": "\u5bbd\u745e\u6c34\u65cf"}, {"lat": 32.517586, "lng": 119.939022, "name": "\u6d77\u7acb\u65b9"}, {"lat": 23.089307, "lng": 113.240111, "name": "\u521b\u6bc5\u6c34\u65cf"}, {"lat": 22.691655, "lng": 114.353299, "name": "\u6d77\u306e\u666f\u6e14\u5177\u6c34\u65cf\u9986"}, {"lat": 32.050385, "lng": 118.74748, "name": "\u5357\u4eac\u851a\u84dd\u6d77\u6d0b\u9986"}, {"lat": 39.11765, "lng": 121.716003, "name": "\u51b0\u604b\u6c34\u65cf"}, {"lat": 34.286101, "lng": 108.899731, "name": "\u897f\u5b89\u6d77\u4e8b\u73ca\u76df\u4ff1\u4e50\u90e8"}, {"lat": 39.927376, "lng": 116.500965, "name": "BMF\u5317\u4eac\u6d77\u6c34\u5de5\u5382"}, {"lat": 24.831392, "lng": 118.627104, "name": "\u798f\u5efa\u664b\u6c5f\u9c7c\u4e50\u5708\u6c34\u65cf"}, {"lat": 39.028141, "lng": 117.650226, "name": "\u6d77\u6d0b\u4e4b\u5fc3\u56fd\u9645\u8d38\u6613\u6709\u9650\u516c\u53f8"}, {"lat": 32.035968, "lng": 120.864507, "name": "\u5357\u901a\u5e02\u65f6\u97f5\u8d38\u6613\u6709\u9650\u516c\u53f8"}, {"lat": 37.890277, "lng": 112.550864, "name": "\u6d77\u6c34\u9c7c\u6e2f\u6e7e"}, {"lat": 22.555276, "lng": 114.081558, "name": "\u6df1\u5733\u9b45\u529b\u6d77\u6d0b\u6c34\u65cf\u9986"}, {"lat": 39.968519, "lng": 116.339, "name": "\u6b62\u951a\u6e7e\u6c34\u65cf"}, {"lat": 30.541269, "lng": 119.974576, "name": "\u6db5\u4e50\u6d77\u7cbe\u7075\u6c34\u65cf"}, {"lat": 40.650225, "lng": 122.511639, "name": "\u5927\u77f3\u6865\u5e02\u7199\u9716\u6c34\u65cf\u5e97"}, {"lat": 26.013731, "lng": 119.297926, "name": "\u798f\u5dde\u98ce\u4e91\u6c34\u65cf"}, {"lat": 28.194795, "lng": 113.027739, "name": "\u6e56\u5357\u91d1\u5cb1\u8d38\u6613\u6709\u9650\u516c\u53f8"}, {"lat": 39.875618, "lng": 116.450961, "name": "\u5317\u4eac\u5bbd\u745e\u6587\u5316\u53d1\u5c55\u6709\u9650\u516c\u53f8"}, {"lat": 38.916723, "lng": 115.569303, "name": "\u6d77\u7cbe\u7075\u6c34\u65cf-\u4fdd\u5b9a"}, {"lat": 39.050385, "lng": 117.659833, "name": "\u5929\u6d25\u5c0f\u4f19\u4f34\u6c34\u65cf"}, {"lat": 31.574198, "lng": 120.316835, "name": "\u6c5f\u82cf\u7701\u65e0\u9521\u5e02\u5357\u7985\u5bfa\u6df1\u84dd\u6c34\u65cf"}, {"lat": 39.931187, "lng": 116.525379, "name": "AMF\u6d77\u6c34\u519c\u573a"}, {"lat": 40.992521, "lng": 117.933822, "name": "\u9f8d\u5bab"}, {"lat": 45.758926, "lng": 126.620132, "name": "\u6984\u6d77\u6c34\u65cf"}, {"lat": 38.895168, "lng": 115.479603, "name": "\u4fdd\u5b9a\u5170\u8d1d\u6d77\u6c34"}, {"lat": 38.026694, "lng": 114.529343, "name": "\u84dd\u8272\u6c34\u5cb8"}, {"lat": 23.299834, "lng": 116.172686, "name": "\u666e\u5b81\u5e02\u9a6c\u5c14\u4ee3\u592b\u6d77\u6d0b\u9986"}, {"lat": 36.647365, "lng": 101.744449, "name": "\u9752\u6d77\u76db\u65b9\u5546\u8d38\u6709\u9650\u516c\u53f8\u84dd\u6d77\u6c34\u65cf"}, {"lat": 23.090869, "lng": 113.238759, "name": "\u5e7f\u5dde\u5e02\u6d77\u96c5\u6c34\u65cf\u5668\u6750\u6709\u9650\u516c\u53f8"}, {"lat": 22.554425, "lng": 114.085067, "name": "\u6df1\u5733\u5929\u84dd\u6c34\u65cf\u6709\u9650\u516c\u53f8"}, {"lat": 30.517867, "lng": 114.400832, "name": "\u6d77\u76d7\u6c34\u65cf"}, {"lat": 34.233644, "lng": 108.938995, "name": "\u5c0f\u767d&\u76d0\u5ea6\u867e\u7c73\u6d77\u6c34\u5de5\u4f5c\u5ba4"}, {"lat": 30.544836, "lng": 114.327612, "name": "\u5927\u4e1c\u95e8\u6b27\u5347\u6d77\u666f\u574a"}, {"lat": 30.544836, "lng": 114.327612, "name": "\u6b27\u5347\u6d77\u666f\u574a"}, {"lat": 25.037867, "lng": 102.721252, "name": "\u6606\u660e\u6d77\u8d3c\u738b\u6c34\u65cf"}, {"lat": 34.224538, "lng": 108.969663, "name": "\u6d77\u7acb\u65b9\u6c34\u65cf"}, {"lat": 22.545678, "lng": 114.127455, "name": "\u9752\u82f9\u679c\u6c34\u65cf\u574a"}, {"lat": 45.766636, "lng": 126.666486, "name": "\u9ed1\u9f99\u6c5f\u6df1\u84dd\u6c34\u65cf\u6709\u9650\u516c\u53f8 "}, {"lat": 39.04792, "lng": 117.655347, "name": "\u5858\u6cbd\u6d69\u6d77\u6c34\u65cf"}, {"lat": 29.895543, "lng": 121.527058, "name": "\u5929\u80dc\u6d77\u6d0b"}, {"lat": 45.792844, "lng": 126.642562, "name": "\u6e90\u7f18\u6d77\u6d0b\u4e16\u754c\u751f\u6001\u56ed"}, {"lat": 39.165376, "lng": 117.277909, "name": "\u5929\u6d77\u6c34\u65cf"}, {"lat": 37.857004, "lng": 112.511179, "name": "\u5c71\u897f\u7701\u592a\u539f\u5e02\u68a6\u5e7b\u6d77\u6f9c\u6c34\u65cf "}, {"lat": 39.165376, "lng": 117.277909, "name": "\u5929\u6d77\u6c34\u65cf"}, {"lat": 37.423338, "lng": 122.161234, "name": "\u5a01\u6d77\u7ea2\u73ca\u745a\u6c34\u65cf\u9986"}, {"lat": 37.423338, "lng": 122.161234, "name": "\u5a01\u6d77\u5e02\u7ecf\u6d4e\u6280\u672f\u5f00\u53d1\u533a\u7ea2\u73ca\u745a\u6c34\u65cf\u9986"}, {"lat": 40.047329, "lng": 116.272025, "name": "\u5317\u4eac\u6d77\u97f5\u6c34\u666f\u6c34\u65cf"}, {"lat": 22.28204, "lng": 114.238325, "name": "\u5357\u6d77\u6d0b"}, {"lat": 45.793248, "lng": 126.644795, "name": "\u54c8\u5c14\u6ee8\u540d\u4eba\u6d77\u6c34\u4e13\u5356"}, {"lat": 40.992521, "lng": 117.933822, "name": "\u6df1\u84dd\u6c34\u65cf\u9986"}, {"lat": 33.772927, "lng": 113.255587, "name": "\u73ca\u745a\u6c34\u65cf\u9986"}, {"lat": 36.19217, "lng": 113.131542, "name": "\u5c71\u897f\u6d77\u6d0b\u4e4b\u5fc3\u751f\u7269\u79d1\u6280\u6709\u9650\u516c\u53f8"}, {"lat": 30.546051, "lng": 114.305871, "name": "\u661f\u71a0\u6c34\u65cf"}, {"lat": 39.877726, "lng": 116.484888, "name": "\u81ea\u7531\u81ea\u5728\u6d77\u6c34\u751f\u7269"}, {"lat": 34.238869, "lng": 108.986185, "name": "\u5fae\u89c2Oc\u00e9ans"}, {"lat": 41.093197, "lng": 122.990828, "name": "\u5927\u6d77\u6d0b\u6c34\u4e16\u754c"}, {"lat": 22.556805, "lng": 114.083173, "name": "\u6df1\u5733\u5e02\u798f\u7530\u533a\u578b\u5730\u6c34\u65cf\u5e97"}, {"lat": 34.847955, "lng": 119.126243, "name": "\u8fde\u4e91\u6e2f\u76fc\u76fc\u6c34\u65cf"}, {"lat": 28.149311, "lng": 112.999024, "name": "\u6d77\u6d0b\u8d35\u65cf\u751f\u7269\u79d1\u6280\u516c\u53f8"}, {"lat": 31.186388, "lng": 121.380723, "name": "\u4e0a\u6d77\u9c7c\u9177\u6c34\u65cf\u666f\u89c2\u5de5\u7a0b\u6709\u9650\u516c\u53f8"}, {"lat": 31.308923, "lng": 121.273737, "name": "\u4e0a\u6d77\u4f51\u4eca\u5b9e\u4e1a\u6709\u9650\u516c\u53f8"}, {"lat": 45.754035, "lng": 126.603386, "name": "\u7d22\u83f2\u4e9a\u6c34\u65cf"}, {"lat": 39.037621, "lng": 117.648457, "name": "\u5929\u6d25\u8363\u65b0\u6c34\u65cf\u6d77\u6d0b\u9986"}, {"lat": 39.871074, "lng": 116.463284, "name": "\u535a\u96c5\u6d77\u5de5\u574a"}, {"lat": 23.093241, "lng": 113.238847, "name": "\u5e7f\u5dde\u6d77\u535a\u6c34\u65cf\u5668\u6750\u6709\u9650\u516c\u53f8"}, {"lat": 23.075145, "lng": 113.202842, "name": "\u5e7f\u5dde\u5e02\u5ead\u6d0b\u6c34\u65cf"}, {"lat": 39.004596, "lng": 116.371682, "name": "\u9738\u5dde\u5e02\u7231\u4e3d\u6c34\u65cf"}, {"lat": 39.004596, "lng": 116.371682, "name": "\u9738\u5dde\u5e02\u7231\u4e3d\u6c34\u65cf"}, {"lat": 30.309078, "lng": 120.158007, "name": "\u676d\u5dde\u4e3d\u6b23\u6d77\u6d0b\u4e16\u754c"}, {"lat": 23.089509, "lng": 113.236635, "name": "\u5e7f\u5dde\u76d0\u5ea6\u6c34\u65cf"}, {"lat": 30.266099, "lng": 120.09918, "name": "\u6d77\u7cbe\u7075\u8272\u5f69\u6c34\u65cf\u574a"}, {"lat": 31.282874, "lng": 120.732894, "name": "\u82cf\u5dde\u84dd\u6f9c\u6d77\u6d0b\u6c34\u65cf"}, {"lat": 36.201664, "lng": 113.120292, "name": "\u84dd\u68a6\u6d77\u6d0b\u751f\u7269\u9986"}, {"lat": 34.329283, "lng": 108.884947, "name": "\u897f\u5b89\u6d77\u5e1d\u6c34\u65cf"}, {"lat": 41.108185, "lng": 122.962092, "name": "\u978d\u5c71\u5e02\u6708\u4eae\u6d77\u6c34\u65cf"}, {"lat": 34.240335, "lng": 108.960447, "name": "\u5144\u5f1f\u9c7c\u7f18\u6d77\u6c34\u4ff1\u4e50\u90e8"}, {"lat": 31.231848, "lng": 121.285135, "name": "\u4e0a\u6d77\u601d\u6e90\u51c0\u6c34\u8bbe\u5907\u6709\u9650\u516c\u53f8"}, {"lat": 38.918933, "lng": 121.60721, "name": "\u5927\u8fde\u54c1\u51e1\u6c34\u65cf"}, {"lat": 34.332894, "lng": 108.946982, "name": "\u897f\u5b89\u9f99\u665f\u6d77\u6c34\u5e97"}, {"lat": 22.551731, "lng": 114.055593, "name": "\u6df1\u5733\u5e02\u84dd\u6d77\u6c34\u65cf\u6709\u9650\u516c\u53f8"}, {"lat": 38.931271, "lng": 121.610928, "name": "\u5927\u8fde\u73ca\u745a\u6d77\u6c34\u65cf"}, {"lat": 30.615387, "lng": 114.288834, "name": "\u6b66\u6c49\u5e02\u6c5f\u6c49\u533a\u68ee\u6d77\u89c2\u8d4f\u9c7c\u5546\u884c"}, {"lat": 37.855362, "lng": 112.569711, "name": "\u4eae\u70b9\u6c34\u65cf"}, {"lat": 30.747538, "lng": 120.786171, "name": "\u6d59\u6c5f\u5609\u5174\u5c3c\u83ab\u6c34\u65cf"}, {"lat": 31.261158, "lng": 121.480143, "name": "\u4e13\u4e1a\u5206\u4f53\u6c34\u51b7-\u4e0a\u6d77\u96be\u5f97\u5236\u51b7\u8bbe\u5907\u6709\u9650\u516c\u53f8"}, {"lat": 22.555372, "lng": 114.081238, "name": "\u6df1\u5733\u5e02\u552f\u7f8e\u6d77\u6d0b\u6c34\u65cf\u9986"}, {"lat": 36.12568, "lng": 120.361624, "name": "\u94b2\u9f99\u8fbe\u6c34\u65cf\u6279\u53d1\u4e2d\u5fc3"}, {"lat": 39.04772, "lng": 117.704874, "name": "\u5c3c\u83ab\u6c34\u65cf"}, {"lat": 23.125726, "lng": 113.333491, "name": "\u73ca\u745a\u6d77\u6d0b\u4f53\u9a8c\u9986"}, {"lat": 30.309078, "lng": 120.158007, "name": "\u676d\u5dde\u4f73\u6021\u6c34\u65cf\u9986"}, {"lat": 22.549717, "lng": 113.917937, "name": "\u6df1\u5733\u5e02\u5357\u5c71\u533a\u6d77\u535a\u6c34\u65cf\u9986"}, {"lat": 41.6216, "lng": 122.753592, "name": "\u6d77\u738b\u6c34\u65cf"}, {"lat": 22.480279, "lng": 113.357323, "name": "\u5965\u7f8e\u6c34\u65cf"}, {"lat": 31.268035, "lng": 121.514498, "name": "\u70ed\u5e26\u9c7c\u6797\u6d77\u6d0b\u6c34\u65cf"}, {"lat": 32.02716, "lng": 118.801602, "name": "\u4e71\u7801\u661f\u6d77\u65cf"}, {"lat": 34.824894, "lng": 117.586343, "name": "\u5c71\u4e1c\u7701\u67a3\u5e84\u5e02\u851a\u84dd\u6d77\u5cb8\u6c34\u65cf"}, {"lat": 25.079769, "lng": 102.732842, "name": "\u6606\u660e\u6f6e\u777f\u6c34\u65cf"}, {"lat": 39.128746, "lng": 116.409346, "name": "\u599e\u54e5\u6d77\u6d0b\u9986"}, {"lat": 23.089509, "lng": 113.236635, "name": "\u6e14\u4e50\u5708\u6c34\u65cf"}, {"lat": 34.276125, "lng": 108.867688, "name": "\u76d0\u5ea6\u6d77\u5de5\u574a"}, {"lat": 34.231306, "lng": 108.936056, "name": "\u53e6\u7c7b\u6c34\u65cf"}, {"lat": 34.75661, "lng": 113.649644, "name": "\u7b2c\u516b\u53f7\u6d77\u6d0b\u5de5\u4f5c\u5ba4"}, {"lat": 23.093241, "lng": 113.238847, "name": "\u5e7f\u5dde\u6021\u4e50\u6d77\u6c34\u4e13\u95e8\u5e97"}, {"lat": 31.282368, "lng": 120.59851, "name": "sea \u4e0b\u6d77\u5427\u6c34\u65cf\u751f\u6d3b\u9986"}, {"lat": 31.267818, "lng": 121.514351, "name": "\u70ed\u5e26\u96e8\u6797\u6d77\u6d0b\u6c34\u65cf"}, {"lat": 36.703258, "lng": 117.008652, "name": "\u6d4e\u5357\u817e\u8f69\u6c34\u65cf"}, {"lat": 36.085127, "lng": 120.362029, "name": "\u9752\u5c9b\u946b\u6e90\u7f8e\u6c34\u65cf\u884c"}, {"lat": 45.686139, "lng": 126.368418, "name": "\u54c8\u5c14\u6ee8\u73ca\u745a\u6d77\u4e13\u4e1a\u6c34\u65cf"}, {"lat": 30.307827, "lng": 120.161492, "name": "\u676d\u5dde\u4f73\u6021\u6c34\u65cf\u9986"}, {"lat": 23.089323, "lng": 113.240139, "name": "\u5e7f\u5dde\u5e02\u8354\u6e7e\u533a\u6e14\u4eba\u5821\u6c34\u65cf\u5546\u884c"}, {"lat": 39.947638, "lng": 116.316273, "name": "\u821c\u4e30\u6c34\u65cf"}, {"lat": 30.655283, "lng": 104.077756, "name": "\u7ea2\u6d77\u6d0b\u6c34\u65cf"}, {"lat": 38.874757, "lng": 121.561324, "name": "\u5927\u8fde\u9526\u701a\u6c34\u65cf\u79d1\u6280\u6709\u9650\u516c\u53f8"}, {"lat": 39.958953, "lng": 116.521695, "name": "\u9f99\u6cfd\u6c34\u65cf\u751f\u7269\u62a4\u7406\u4e2d\u5fc3"}, {"lat": 40.831554, "lng": 111.724399, "name": "\u5185\u8499\u53e4\u9c7c\u4e50\u5708\u6c34\u65cf"}, {"lat": 41.786474, "lng": 123.414332, "name": "\u6e56\u6d77\u6cc9\u6c34\u65cf\u4ff1\u4e50\u90e8"}, {"lat": 31.34515, "lng": 121.500708, "name": "\u4e0a\u6d77\u6ce2\u6d9b\u6c34\u65cf\u7528\u54c1\u6709\u9650\u516c\u53f8"}, {"lat": 24.723494, "lng": 118.485782, "name": "\u827a\u82b3\u6c34\u65cf"}, {"lat": 30.567583, "lng": 120.049831, "name": "\u6e56\u5dde\u5fb7\u6e05\u6db5\u4e50\u6d77\u7cbe\u7075\u6c34\u65cf"}, {"lat": 41.808645, "lng": 123.432791, "name": "\u5cfb\u4eab\u6c34\u65cf"}, {"lat": 43.871988, "lng": 126.564544, "name": "\u5409\u6797\u604b\u6d77\u6c34\u65cf"}, {"lat": 37.423338, "lng": 122.161234, "name": "\u5a01\u6d77\u6d77\u6c34\u6c34\u65cf\u9986"}, {"lat": 19.21483, "lng": 110.414359, "name": "\u73ca\u745a\u6c34\u65cf"}, {"lat": 38.014621, "lng": 114.586383, "name": "\u6cb3\u5317\u7701\u77f3\u5bb6\u5e84\u5e02\u88d5\u534e\u533a\u9ccd\u9cde\u7cbe\u5de5\u6c34\u65cf\u5de5\u4f5c\u5ba4"}, {"lat": 23.107309, "lng": 113.242176, "name": "\u7231\u7434\u6d77"}, {"lat": 34.85025, "lng": 113.685601, "name": "\u65b0\u6d77\u6d0b\u8fde\u9501\u8d85\u5e02"}, {"lat": 32.110092, "lng": 118.832666, "name": "\u5357\u4eac\u84dd\u6d77\u6c34\u65cf"}, {"lat": 19.96492, "lng": 110.542064, "name": " \u6d77\u53e3\u6e14\u4e2d\u9c7c\u6c34\u65cf\u6279\u53d1"}, {"lat": 23.111135, "lng": 113.22711, "name": "\u5ee3\u5dde\u9b5a\u4f6c\u6c34\u65cf"}, {"lat": 31.173029, "lng": 121.527474, "name": "\u4e0a\u6d77\u534e\u9970\u6c34\u65cf\u7528\u54c1\u6709\u9650\u516c\u53f8"}, {"lat": 31.173029, "lng": 121.527474, "name": "\u4e0a\u6d77\u534e\u9970\u6c34\u65cf\u7528\u54c1\u6709\u9650\u516c\u53f8"}, {"lat": 19.180501, "lng": 109.733755, "name": "\u6d77\u5357\u83b9\u83b9\u6c34\u65cf"}, {"lat": 45.74423, "lng": 126.607456, "name": "\u54c8\u5c14\u6ee8\u4eae\u4eae\u6c34\u65cf"}, {"lat": 23.093666, "lng": 113.234423, "name": "\u5e7f\u5dde\u5e02\u8354\u6e7e\u533a\u8d8a\u6d77\u6c34\u65cf\u574a"}, {"lat": 22.555512, "lng": 114.081239, "name": "\u6df1\u5733\u84dd\u8272\u6d77\u6d0b\u6c34\u65cf"}, {"lat": 23.120049, "lng": 113.30765, "name": "\u542f\u822a\u6c34\u65cf"}, {"lat": 22.601704, "lng": 113.099992, "name": "\u6d77\u6d0b\u4e4b\u661f\u73ca\u745a\u6c34\u65cf\u9986"}, {"lat": 22.554446, "lng": 114.051824, "name": "\u6df1\u5733\u5e02\u81ea\u7136\u597d\u6c34\u65cf\u6709\u9650\u516c\u53f8"}, {"lat": 31.871942, "lng": 117.316822, "name": "\u5408\u80a5\u987e\u98de\u4e91\u6d77\u751f\u7269\u79d1\u6280\u6709\u9650\u516c\u53f8"}, {"lat": 29.875063, "lng": 121.505629, "name": "\u5b81\u6ce2\u6c34\u65cf \u5b81\u6ce2\u6d77\u5b87\u6c34\u65cf\u6709\u9650\u516c\u53f8"}, {"lat": 31.320217, "lng": 120.631939, "name": "\u82cf\u5dde\u6d77\u666f\u73ca\u745a\u9986"}, {"lat": 40.042993, "lng": 116.428141, "name": "\u5317\u4eac\u76db\u6e90\u79d1\u6280\u53d1\u5c55\u6709\u9650\u516c\u53f8(RO\u3001\u5206\u4f53\u6c34\u51b7)"}, {"lat": 31.364471, "lng": 120.970075, "name": "\u6de1\u6c34\u6d77\u5cb8\u7cbe\u54c1\u6c34\u65cf\u9928"}, {"lat": 37.423338, "lng": 122.161234, "name": "\u7ea2\u73ca\u745a\u6c34\u65cf\u9986"}, {"lat": 31.27432, "lng": 121.429412, "name": "\u4e0a\u6d77\u6b66\u5f3a\u6c34\u65cf\u7528\u54c1\u6709\u9650\u516c\u53f8"}, {"lat": 39.945116, "lng": 116.481992, "name": "\u5317\u4eac\u5c71\u59c6\u6c34\u65cf"}, {"lat": 39.615544, "lng": 117.411421, "name": "\u665f\u660a\u6c34\u65cf"}, {"lat": 45.792844, "lng": 126.642562, "name": "\u54c8\u5c14\u6ee8\u68a6\u5e7b\u6c34\u65cf"}, {"lat": 37.423338, "lng": 122.161234, "name": "\u7ea2\u73ca\u745a\u6c34\u65cf"}, {"lat": 36.09929, "lng": 118.527663, "name": "\u9e23\u626c\u6c34\u65cf"}, {"lat": 31.35205, "lng": 121.363117, "name": "\u4e0a\u6d77\u660a\u5b87\u6c34\u65cf\u6709\u9650\u516c\u53f8"}, {"lat": 31.254737, "lng": 121.555213, "name": "\u4e0a\u6d77\u6da6\u658c\u5de5\u8d38\u6709\u9650\u516c\u53f8"}, {"lat": 36.700081, "lng": 117.005962, "name": "\u817e\u8f69\u6c34\u65cf"}, {"lat": 39.131694, "lng": 117.141884, "name": "\u5929\u6d25\u9c7c\u513f\u7801\u5934\u6c34\u65cf"}, {"lat": 39.089213, "lng": 117.144298, "name": "\u516b\u53f7\u6d77\u6d0b\u5de5\u4f5c\u5ba4"}, {"lat": 38.915993, "lng": 117.441657, "name": "\u9c7c\u4e50\u56ed"}, {"lat": 31.353389, "lng": 121.417444, "name": "\u4e0a\u6d77\u84dd\u8fea\u6c34\u65cf\u79d1\u6280"}, {"lat": 23.075145, "lng": 113.202842, "name": "\u660e\u60a6\u6c34\u65cf"}, {"lat": 31.587188, "lng": 120.306355, "name": "\u6df1\u6d77\u63a2\u5947\u6d77\u6d0b\u9986"}, {"lat": 22.568003, "lng": 114.126174, "name": "\u6df1\u5733\u5e02\u85cd\u5927\u6d77\u6d0b\u79d1\u6280\u6709\u9650\u516c\u53f8"}, {"lat": 22.568003, "lng": 114.126174, "name": "\u6df1\u5733\u5e02\u85cd\u5927\u6d77\u6d0b\u79d1\u6280\u6709\u9650\u516c\u53f8"}, {"lat": 36.67757, "lng": 117.022046, "name": "\u6d4e\u5357\u6d77\u9f0e\u5de5\u8d38\u6709\u9650\u516c\u53f8"}, {"lat": 23.038118, "lng": 113.129874, "name": "\u9053\u77e5\u4e0d"}, {"lat": 32.051968, "lng": 118.741549, "name": "\u5357\u4eac\u4e71\u7801\u661f\u6d77\u65cf"}, {"lat": 22.549713, "lng": 113.916332, "name": "\u6df1\u5733\u5e02\u5357\u5c71\u533a\u6d77\u535a\u6c34\u65cf\u9986"}, {"lat": 39.098128, "lng": 117.234962, "name": "\u5c71\u59c6\u6c34\u65cf"}, {"lat": 31.261818, "lng": 121.396047, "name": "\u4e0a\u6d77\u65e0\u91cf\u6d77\u6c34\u6c34\u65cf\u7528\u54c1\u5e97"}, {"lat": 31.256832, "lng": 121.577274, "name": "\u4e0a\u6d77\u6d66\u4e1cPAPA\u6c34\u5ba0\u5e97"}, {"lat": 31.179151, "lng": 121.511202, "name": "\u4e0a\u6d77\u96ef\u7b19\u6d77\u65cf\u574a"}, {"lat": 36.841158, "lng": 118.060355, "name": "\u5c71\u4e1c\u6dc4\u535a\u53cc\u9c7c\u6d77\u666f"}, {"lat": 41.814067, "lng": 123.480472, "name": "\u7231\u7434\u6d77\u6c34\u65cf"}, {"lat": 41.814067, "lng": 123.480472, "name": "\u6d77\u6708\u6c34\u65cf"}, {"lat": 22.549471, "lng": 113.916788, "name": "\u6df1\u5733\u70ab\u5f69\u6c34\u65cf\u666f\u89c2\u8bbe\u8ba1\u6709\u9650\u516c\u53f8"}, {"lat": 38.918933, "lng": 121.60721, "name": "\u5927\u8fde\u6c47\u9f99\u6c34\u65cf"}, {"lat": 31.205039, "lng": 121.433057, "name": "\u6b27\u84c9\u6c34\u65cf"}, {"lat": 44.020356, "lng": 81.289048, "name": "\u65b0\u7586\u4f0a\u5b81\u5e02\u84dd\u9b54\u6c34\u65cf"}, {"lat": 31.276784, "lng": 121.219868, "name": "\u4e0a\u6d77\u5e86\u6d9b\u6c34\u65cf\u5668\u6750\u6709\u9650\u516c\u53f8"}, {"lat": 22.572058, "lng": 113.909536, "name": "\u6df1\u5733\u5e02\u4e5d\u6c47\u79d1\u6280\u6709\u9650\u516c\u53f8"}, {"lat": 36.104046, "lng": 120.476876, "name": "\u9752\u5c9b\u9f99\u5bab\u6d77\u6d0b\u7267\u573a\u751f\u6001\u4fee\u590d\u5de5\u7a0b\u6709\u9650\u516c\u53f8"}, {"lat": 28.002838, "lng": 120.690635, "name": "\u4e2d\u56fd\u73ca\u745a\u7901\u519c\u573a(CRF)"}, {"lat": 30.74912, "lng": 120.785333, "name": "\u2605\u2605\u7cbe\u54c1SPS\u65ad\u80a2\u2605\u2605"}, {"lat": 38.97976, "lng": 121.558791, "name": "\u6e24\u6d77\u4e50\u56ed\u6d77\u6d0b\u751f\u7269\u517b\u6b96\u573a\uff08\u5927\u8fde\u6d3b\u4f53\u6c34\u6bcd\uff09"}, {"lat": 19.94519, "lng": 110.467334, "name": "\u6d77\u5357\u8d64\u9053\u9633\u5149\u6d77\u6c34\u89c2\u8d4f\u9c7c\u573a"}, {"lat": 19.21483, "lng": 110.414359, "name": "\u6d77\u6d0b\u91d1\u5143\u5b9e\u4f53\u6e14\u573a"}, {"lat": 42.911656, "lng": 129.513637, "name": "\u5ef6\u5409\u5e02\u7011\u5e03\u6587\u5316\u521b\u610f\u6709\u9650\u516c\u53f8"}, {"lat": 36.682263, "lng": 117.014626, "name": "2017\u7b2c\u4e09\u5c4a\u4e2d\u56fd(\u6c5f\u82cf)\u56fd\u9645\u6c34\u65cf\u7528\u54c1\u5c55\u89c8\u4f1a"}, {"lat": 41.808645, "lng": 123.432791, "name": "\u946b\u946b\u6c34\u65cf"}, {"lat": 40.840354, "lng": 122.791201, "name": "\u68a6\u5e7b\u6d77\u6d0b"}, {"lat": 37.405314, "lng": 117.968292, "name": "\u5c71\u4e1c\u817e\u8fbe\u751f\u7269\u79d1\u6280\u6709\u9650\u516c\u53f8"}, {"lat": 30.172894, "lng": 120.389081, "name": "\u676d\u5dde\u70ed\u5e26\u6d77\u6d0b\u79d1\u666e\u9986"}, {"lat": 21.470752, "lng": 109.147715, "name": "\u5317\u6d77\u6d77\u6d0b\u6c34\u65cf"}, {"lat": 39.259131, "lng": 117.180606, "name": "2015\u4e2d\u56fd\u5929\u6d25\u56fd\u9645\u5ba0\u7269\u6c34\u65cf\u5c55\u4f1a"}, {"lat": 20.022071, "lng": 110.330802, "name": "\u6d77\u5357\u5357\u6c99\u6c34\u65cf\u6709\u9650\u516c\u53f8"}, {"lat": 20.022071, "lng": 110.330802, "name": "\u5b87\u817e\u6d77\u6c34\u6279\u53d1"}, {"lat": 22.606981, "lng": 114.278483, "name": "\u6df1\u5733\u5e02\u7965\u5fb7\u6d77\u6d0b\u751f\u7269\u4ea7\u4e1a\u6709\u9650\u516c\u53f8"}, {"lat": 23.446661, "lng": 113.220176, "name": "\u76db\u4e1a"}, {"lat": 20.022071, "lng": 110.330802, "name": "\u5357\u6c99\u6c34\u65cf"}, {"lat": 31.771397, "lng": 119.981861, "name": "\u98de\u9686\u6d69 \u6d77\u6c34\u4ff1\u4e50\u90e8"}, {"lat": 39.947107, "lng": 116.282446, "name": "\u6d77\u4e16\u754c\u6c34\u65cf"}, {"lat": 29.194123, "lng": 106.877466, "name": "\u9999\u99a8\u6c34\u65cf"}, {"lat": 23.091486, "lng": 113.233648, "name": "\u6674\u6d77\u6c34\u65cf"}, {"lat": 45.677112, "lng": 126.627315, "name": "\u54c8\u5c14\u6ee8\u91d1\u8272\u6d77\u6ee9\u6d77\u6c34\u9c7c"}, {"lat": 33.576279, "lng": 114.046061, "name": "\u60a6\u76ee\u6d77\u6c34\u6c34\u65cf\u751f\u6001\u7bb1"}, {"lat": 38.985287, "lng": 121.588144, "name": "\u5927\u8fde\u5955\u6d77\u6c34\u65cf"}, {"lat": 19.180501, "lng": 109.733755, "name": "yingying.shuizu"}, {"lat": 31.364471, "lng": 120.970075, "name": "\u6606\u5c71\u6de1\u6c34\u6d77\u5cb8\u7cbe\u54c1\u6c34\u65cf"}, {"lat": 22.546054, "lng": 114.025974, "name": "\u6c38\u6052\u851a\u84dd \u6c34\u65cf\u7528\u54c1"}, {"lat": 38.942632, "lng": 116.962999, "name": "\u4e9a\u7279\u5170\u8482\u65af"}, {"lat": 31.230895, "lng": 121.638481, "name": "\u6cfd\u534e\u6c34\u65cf\u79d1\u6280\u53d1\u5c55\u6709\u9650\u516c\u53f8"}, {"lat": 23.102668, "lng": 113.321196, "name": "\u5e7f\u5dde\u542f\u7b56\u5c55\u89c8\u670d\u52a1\u6709\u9650\u516c\u53f8"}, {"lat": 36.682263, "lng": 117.014626, "name": "2017\u7b2c\u56db\u5c4a\u4e2d\u56fd(\u5c71\u4e1c)\u56fd\u9645\u5ba0\u7269\u6c34\u65cf\u7528\u54c1\u5c55\u89c8\u4f1a"}, {"lat": 31.231278, "lng": 121.457621, "name": "\u7b2c\u5341\u4e94\u5c4a\u56fd\u9645\u89c2\u8d4f\u9c7c\u53ca\u6c34\u65cf\u5668\u6750\u5c55\u89c8\u4f1a/\u5e7f\u4e1c\u56fd\u9645\u6c34\u65cf\u5c55"}, {"lat": 23.132708, "lng": 113.400065, "name": "\u5e7f\u5dde\u56fd\u9645\u6c34\u65cf\u5c55\uff08GIAS\uff09"}, {"lat": 39.871694, "lng": 116.273319, "name": "\u4e2d\u56fd\u82b1\u9e1f\u9c7c\u866b\u6587\u73a9\u535a\u89c8\u4f1a"}, {"lat": 23.090939, "lng": 113.239568, "name": "\u9f99\u90e8\u843d\uff08\u4e2d\u56fd\uff09\u54c1\u724c\u4e2d\u5fc3        \u62db\u5546\u52a0\u76df"}, {"lat": 31.319939, "lng": 120.631088, "name": "\u82cf\u5dde\u851a\u84dd\u6d77\u6d0b\u6c34\u65cf\u5de5\u7a0b\u6709\u9650\u516c\u53f8"}, {"lat": 23.093241, "lng": 113.238847, "name": "\u6d77\u6c34\u6e14\u53cb\u6c34\u65cf\u9986"}, {"lat": 23.403604, "lng": 113.213868, "name": "\u5e7f\u5dde\u5e02\u6052\u4e30\u6c34\u65cf\u7528\u54c1\u5546\u884c"}, {"lat": 20.022071, "lng": 110.330802, "name": "\u6d77\u5357\u6c34\u65cf\u4e4b\u5bb6"}, {"lat": 19.247695, "lng": 110.6219, "name": "\u6d77\u5357\u5b8f\u6da6\u6c34\u65cf"}, {"lat": 31.260891, "lng": 121.448019, "name": "\u4e0a\u6d77\u8f69\u6d77\u5ba0\u7269\u7528\u54c1\u6709\u9650\u516c\u53f8"}, {"lat": 19.942909, "lng": 110.507269, "name": "\u6d77\u5357\u7ea2\u6d77\u661f\u6d77\u6d0b\u751f\u7269\u79d1\u6280\u6709\u9650\u516c\u53f8"}, {"lat": 19.942909, "lng": 110.507269, "name": "\u6d77\u5357\u4edf\u5cf0\u6d77\u6d0b\u79d1\u6280\u6709\u9650\u516c\u53f8"}, {"lat": 23.093666, "lng": 113.234423, "name": "\u6d77\u6d0b\u6d3e\u5bf9\u795e\u4ed9\u4e13\u5356\u5e97"}, {"lat": 20.022071, "lng": 110.330802, "name": "\u5eb7\u6021\u6d77\u6c34\u89c2\u8d4f\u9c7c\u6279\u53d1\u4e2d\u5fc3"}, {"lat": 19.741334, "lng": 110.48011, "name": "\u6d77\u5357\u946b\u8fbe\u6c34\u65cf\u6709\u9650\u516c\u53f8"}, {"lat": 23.120049, "lng": 113.30765, "name": "\u5fb7\u4e50\u6c0f\u6c34\u65cf"}, {"lat": 33.277223, "lng": 120.785939, "name": "\u6c5f\u82cf\u5927\u4e30\u84dd\u8272\u65c5\u6e38\u5f00\u53d1\u6709\u9650\u516c\u53f8"}, {"lat": 19.999087, "lng": 110.386009, "name": "\u6d77\u53e3\u5609\u79b9\u6d77\u6d0b\u751f\u7269\u79d1\u6280\u6709\u9650\u516c\u53f8"}, {"lat": 19.998948, "lng": 110.4359, "name": "\u5e74\u5e74\u6709\u4f59\u89c2\u8d4f\u6c34\u65cf\u751f\u7269\u6709\u9650\u516c\u53f8"}]